$GPGGA,120155.000,6023.3798,N,02306.1596,E,1,7,1.30,55.5,M,20.3,M,,*61
$GPGSA,A,3,26,03,31,22,01,09,23,,,,,,1.55,1.30,0.84*01
$GPGSV,3,1,10,23,72,203,32,03,55,129,39,06,45,290,14,09,44,232,38*75
$GPGSV,3,2,10,22,33,126,34,31,27,047,16,19,17,264,,26,13,086,30*7D
$GPGSV,3,3,10,01,05,170,18,17,05,243,*75
$GPRMC,120155.000,A,6023.3798,N,02306.1596,E,0.96,180.12,151118,,,A*6A
$GPGGA,120156.000,6023.3800,N,02306.1593,E,1,7,1.30,55.4,M,20.3,M,,*68
$GPGSA,A,3,26,03,31,22,01,09,23,,,,,,1.55,1.30,0.84*01
$GPGSV,3,1,10,23,72,203,32,03,55,129,40,06,45,290,14,09,44,232,37*74
$GPGSV,3,2,10,22,33,126,35,31,27,047,16,19,17,264,,26,13,086,31*7D
$GPGSV,3,3,10,01,05,170,18,17,05,243,*75
$GPRMC,120156.000,A,6023.3800,N,02306.1593,E,0.80,179.33,151118,,,A*60
$GPGGA,120157.000,6023.3802,N,02306.1591,E,1,7,1.30,55.3,M,20.3,M,,*6E
$GPGSA,A,3,26,03,31,22,01,09,23,,,,,,1.55,1.30,0.84*01
$GPGSV,3,1,10,23,72,203,32,03,55,129,40,06,45,290,14,09,44,232,37*74
$GPGSV,3,2,10,22,33,126,35,31,27,047,16,19,17,264,,26,13,086,31*7D
$GPGSV,3,3,10,01,05,170,18,17,05,243,*75
$GPRMC,120157.000,A,6023.3802,N,02306.1591,E,0.67,174.37,151118,,,A*61
$GPGGA,120158.000,6023.3784,N,02306.1592,E,1,7,1.30,55.4,M,20.3,M,,*64
$GPGSA,A,3,26,03,31,22,01,09,23,,,,,,1.55,1.30,0.84*01
$GPGSV,3,1,10,23,72,203,32,03,55,129,40,06,45,290,14,09,44,232,37*74
$GPGSV,3,2,10,22,33,126,35,31,27,047,17,19,17,264,,26,13,086,31*7C
$GPGSV,3,3,10,01,05,170,18,17,05,243,*75
$GPRMC,120158.000,A,6023.3784,N,02306.1592,E,0.79,173.92,151118,,,A*6B
$GPGGA,120159.000,6023.3783,N,02306.1591,E,1,7,1.30,55.3,M,20.3,M,,*66
$GPGSA,A,3,26,03,31,22,01,09,23,,,,,,1.55,1.30,0.84*01
$GPGSV,3,1,10,23,72,203,32,03,55,129,40,06,45,290,14,09,44,232,37*74
$GPGSV,3,2,10,22,33,126,35,31,27,047,20,19,17,264,,26,13,086,31*78
$GPGSV,3,3,10,01,05,170,18,17,05,243,*75
$GPRMC,120159.000,A,6023.3783,N,02306.1591,E,0.71,172.31,151118,,,A*6E
$GPGGA,120200.000,6023.3786,N,02306.1589,E,1,7,1.30,55.1,M,20.3,M,,*67
$GPGSA,A,3,26,03,31,22,01,09,23,,,,,,1.55,1.30,0.84*01
$GPGSV,3,1,10,23,72,203,32,03,55,129,40,06,45,290,14,09,44,232,37*74
$GPGSV,3,2,10,22,33,126,35,31,27,047,21,19,17,264,,26,13,086,32*7A
$GPGSV,3,3,10,01,05,170,18,17,05,243,*75
$GPRMC,120200.000,A,6023.3786,N,02306.1589,E,0.53,170.59,151118,,,A*61
$GPGGA,120201.000,6023.3787,N,02306.1588,E,1,7,1.30,55.1,M,20.3,M,,*66
$GPGSA,A,3,26,03,31,22,01,09,23,,,,,,1.55,1.30,0.84*01
$GPGSV,3,1,10,23,72,203,32,03,55,129,40,06,45,290,14,09,44,232,37*74
$GPGSV,3,2,10,22,33,126,35,31,27,047,20,19,17,264,,26,13,086,33*7A
$GPGSV,3,3,10,01,05,170,18,17,05,243,*75
$GPRMC,120201.000,A,6023.3787,N,02306.1588,E,0.43,173.90,151118,,,A*67
$GPGGA,120202.000,6023.3788,N,02306.1585,E,1,7,1.30,55.0,M,20.3,M,,*66
$GPGSA,A,3,26,03,31,22,01,09,23,,,,,,1.55,1.30,0.84*01
$GPGSV,3,1,10,23,72,203,32,03,55,129,40,06,45,290,13,09,44,232,37*73
$GPGSV,3,2,10,22,33,126,35,31,27,047,19,19,17,264,,26,13,086,33*70
$GPGSV,3,3,10,01,05,170,18,17,05,243,*75
$GPRMC,120202.000,A,6023.3788,N,02306.1585,E,0.37,185.26,151118,,,A*61
$GPGGA,120203.000,6023.3792,N,02306.1582,E,1,7,1.30,54.8,M,20.3,M,,*62
$GPGSA,A,3,26,03,31,22,01,09,23,,,,,,1.55,1.30,0.84*01
$GPGSV,3,1,10,23,72,203,32,03,55,129,41,06,45,290,13,09,44,232,37*72
$GPGSV,3,2,10,22,33,126,35,31,27,047,19,19,17,264,,26,13,086,33*70
$GPGSV,3,3,10,01,05,170,18,17,05,243,*75
$GPRMC,120203.000,A,6023.3792,N,02306.1582,E,0.24,194.46,151118,,,A*68
$GPGGA,120204.000,6023.3791,N,02306.1581,E,1,7,1.30,54.8,M,20.3,M,,*65
$GPGSA,A,3,26,03,31,22,01,09,23,,,,,,1.55,1.30,0.84*01
$GPGSV,3,1,10,23,72,203,32,03,55,129,41,06,45,290,13,09,44,232,37*72
$GPGSV,3,2,10,22,33,126,36,31,27,047,19,19,17,264,,26,13,086,33*73
$GPGSV,3,3,10,01,05,170,18,17,05,243,*75
$GPRMC,120204.000,A,6023.3791,N,02306.1581,E,0.20,219.35,151118,,,A*69
$GPGGA,120205.000,6023.3791,N,02306.1581,E,1,7,1.30,54.8,M,20.3,M,,*64
$GPGSA,A,3,26,03,31,22,01,09,23,,,,,,1.55,1.30,0.84*01
$GPGSV,3,1,10,23,72,203,32,03,55,129,41,06,45,290,13,09,44,232,37*72
$GPGSV,3,2,10,22,33,126,36,31,27,047,19,19,17,264,,26,13,086,33*73
$GPGSV,3,3,10,01,05,170,18,17,05,243,*75
$GPRMC,120205.000,A,6023.3791,N,02306.1581,E,0.13,228.72,151118,,,A*69
$GPGGA,120206.000,6023.3790,N,02306.1580,E,1,7,1.30,54.8,M,20.3,M,,*67
$GPGSA,A,3,26,03,31,22,01,09,23,,,,,,1.55,1.30,0.84*01
$GPGSV,3,1,10,23,72,203,32,03,55,129,41,06,45,290,13,09,44,232,37*72
$GPGSV,3,2,10,22,33,126,36,31,27,047,19,19,17,264,,26,13,086,33*73
$GPGSV,3,3,10,01,05,170,18,17,05,243,*75
$GPRMC,120206.000,A,6023.3790,N,02306.1580,E,0.17,231.12,151118,,,A*60
$GPGGA,120207.000,6023.3790,N,02306.1579,E,1,7,1.30,54.8,M,20.3,M,,*60
$GPGSA,A,3,26,03,31,22,01,09,23,,,,,,1.55,1.30,0.84*01
$GPGSV,3,1,10,23,72,203,32,03,55,129,41,06,45,290,14,09,44,232,37*75
$GPGSV,3,2,10,22,33,126,36,31,27,047,19,19,17,264,,26,13,086,33*73
$GPGSV,3,3,10,01,05,170,18,17,05,243,*75
$GPRMC,120207.000,A,6023.3790,N,02306.1579,E,0.23,286.07,151118,,,A*68
$GPGGA,120208.000,6023.3790,N,02306.1578,E,1,7,1.30,54.8,M,20.3,M,,*6E
$GPGSA,A,3,26,03,31,22,01,09,23,,,,,,1.55,1.30,0.84*01
$GPGSV,3,1,10,23,72,203,32,03,55,129,41,06,45,290,14,09,44,232,37*75
$GPGSV,3,2,10,22,33,126,36,31,27,047,19,19,17,264,,26,13,086,33*73
$GPGSV,3,3,10,01,05,170,18,17,05,243,*75
$GPRMC,120208.000,A,6023.3790,N,02306.1578,E,0.15,319.97,151118,,,A*6D
$GPGGA,120209.000,6023.3791,N,02306.1577,E,1,7,1.30,54.8,M,20.3,M,,*61
$GPGSA,A,3,26,03,31,22,01,09,23,,,,,,1.55,1.30,0.84*01
$GPGSV,3,1,10,23,72,203,32,03,55,129,41,06,45,290,14,09,44,232,37*75
$GPGSV,3,2,10,22,33,126,36,31,27,047,19,19,17,264,,26,13,086,33*73
$GPGSV,3,3,10,01,05,170,18,17,05,243,*75
$GPRMC,120209.000,A,6023.3791,N,02306.1577,E,0.16,310.80,151118,,,A*6E
$GPGGA,120210.000,6023.3791,N,02306.1577,E,1,7,1.30,54.8,M,20.3,M,,*69
$GPGSA,A,3,26,03,31,22,01,09,23,,,,,,1.55,1.30,0.84*01
$GPGSV,3,1,10,23,72,203,32,03,55,129,41,06,45,290,14,09,44,232,37*75
$GPGSV,3,2,10,22,33,126,36,31,27,047,20,19,17,264,,26,13,086,33*79
$GPGSV,3,3,10,01,05,170,18,17,05,243,*75
$GPRMC,120210.000,A,6023.3791,N,02306.1577,E,0.19,288.14,151118,,,A*64
$GPGGA,120211.000,6023.3791,N,02306.1576,E,1,7,1.30,54.8,M,20.3,M,,*69
$GPGSA,A,3,26,03,31,22,01,09,23,,,,,,1.55,1.30,0.84*01
$GPGSV,3,1,10,23,72,203,32,03,55,129,41,06,45,290,14,09,44,232,37*75
$GPGSV,3,2,10,22,33,126,37,31,27,047,20,19,17,264,,26,13,086,33*78
$GPGSV,3,3,10,01,05,170,18,17,05,243,*75
$GPRMC,120211.000,A,6023.3791,N,02306.1576,E,0.19,12.19,151118,,,A*58
$GPGGA,120212.000,6023.3792,N,02306.1576,E,1,7,1.41,54.8,M,20.3,M,,*6F
$GPGSA,A,3,26,03,31,22,01,09,23,,,,,,2.11,1.41,1.56*0A
$GPGSV,3,1,10,23,72,203,32,03,55,129,41,06,45,290,14,09,44,232,37*75
$GPGSV,3,2,10,22,33,126,37,31,27,047,21,19,17,263,,26,13,086,33*7E
$GPGSV,3,3,10,01,05,170,18,17,05,243,*75
$GPRMC,120212.000,A,6023.3792,N,02306.1576,E,0.18,21.10,151118,,,A*50
$GPGGA,120213.000,6023.3792,N,02306.1576,E,1,7,1.30,54.8,M,20.3,M,,*68
$GPGSA,A,3,26,03,31,22,01,09,23,,,,,,1.55,1.30,0.84*01
$GPGSV,3,1,10,23,72,203,32,03,55,129,41,06,45,290,14,09,44,232,37*75
$GPGSV,3,2,10,22,33,126,37,31,27,047,21,19,17,263,,26,13,086,33*7E
$GPGSV,3,3,10,01,05,170,18,17,05,243,*75
$GPRMC,120213.000,A,6023.3792,N,02306.1576,E,0.15,0.74,151118,,,A*6D
$GPGGA,120214.000,6023.3793,N,02306.1576,E,1,7,1.41,54.8,M,20.3,M,,*68
$GPGSA,A,3,26,03,31,22,01,09,23,,,,,,2.11,1.41,1.56*0A
$GPGSV,3,1,10,23,72,203,32,03,55,129,41,06,45,290,14,09,44,232,37*75
$GPGSV,3,2,10,22,33,126,37,31,27,047,21,19,17,263,,26,13,086,33*7E
$GPGSV,3,3,10,01,05,170,18,17,05,243,*75
$GPRMC,120214.000,A,6023.3793,N,02306.1576,E,0.15,358.75,151118,,,A*64
$GPGGA,120215.000,6023.3793,N,02306.1576,E,1,7,1.41,54.8,M,20.3,M,,*69
$GPGSA,A,3,26,03,31,22,01,09,23,,,,,,2.11,1.41,1.56*0A
$GPGSV,3,1,10,23,72,203,32,03,55,129,41,06,45,290,14,09,44,232,37*75
$GPGSV,3,2,10,22,33,126,37,31,27,047,22,19,17,263,,26,13,086,33*7D
$GPGSV,3,3,10,01,05,170,18,17,05,243,*75
$GPRMC,120215.000,A,6023.3793,N,02306.1576,E,0.03,247.86,151118,,,A*61
$GPGGA,120216.000,6023.3793,N,02306.1576,E,1,7,1.30,54.8,M,20.3,M,,*6C
$GPGSA,A,3,26,03,31,22,01,09,23,,,,,,1.55,1.30,0.84*01
$GPGSV,3,1,10,23,72,203,32,03,55,129,41,06,45,290,15,09,44,232,37*74
$GPGSV,3,2,10,22,33,126,37,31,27,047,22,19,17,263,,26,13,086,32*7C
$GPGSV,3,3,10,01,05,170,18,17,05,243,*75
$GPRMC,120216.000,A,6023.3793,N,02306.1576,E,0.02,132.17,151118,,,A*6A
$GPGGA,120217.000,6023.3793,N,02306.1576,E,1,7,1.30,54.8,M,20.3,M,,*6D
$GPGSA,A,3,26,03,31,22,01,09,23,,,,,,1.55,1.30,0.84*01
$GPGSV,3,1,10,23,72,203,32,03,55,129,41,06,45,290,15,09,44,232,37*74
$GPGSV,3,2,10,22,33,126,37,31,27,047,22,19,17,263,,26,13,086,32*7C
$GPGSV,3,3,10,01,05,170,19,17,05,243,*74
$GPRMC,120217.000,A,6023.3793,N,02306.1576,E,0.05,95.99,151118,,,A*56
$GPGGA,120218.000,6023.3793,N,02306.1576,E,1,7,1.30,54.8,M,20.3,M,,*62
$GPGSA,A,3,26,03,31,22,01,09,23,,,,,,1.55,1.30,0.84*01
$GPGSV,3,1,10,23,72,203,32,03,55,129,41,06,45,290,15,09,44,232,37*74
$GPGSV,3,2,10,22,33,126,37,31,27,047,22,19,17,263,,26,13,086,31*7F
$GPGSV,3,3,10,01,05,170,19,17,05,243,*74
$GPRMC,120218.000,A,6023.3793,N,02306.1576,E,0.06,78.33,151118,,,A*59
$GPGGA,120219.000,6023.3793,N,02306.1577,E,1,7,1.30,54.8,M,20.3,M,,*62
$GPGSA,A,3,26,03,31,22,01,09,23,,,,,,1.55,1.30,0.84*01
$GPGSV,3,1,10,23,72,203,32,03,55,129,41,06,45,290,15,09,44,232,37*74
$GPGSV,3,2,10,22,33,126,37,31,27,047,22,19,17,263,,26,13,086,31*7F
$GPGSV,3,3,10,01,05,170,19,17,05,243,*74
$GPRMC,120219.000,A,6023.3793,N,02306.1577,E,0.12,356.06,151118,,,A*65
$GPGGA,120220.000,6023.3793,N,02306.1577,E,1,7,1.41,54.8,M,20.3,M,,*6E
$GPGSA,A,3,26,03,31,22,01,09,23,,,,,,2.11,1.41,1.56*0A
$GPGSV,3,1,10,23,72,203,32,03,55,129,41,06,45,290,15,09,44,232,37*74
$GPGSV,3,2,10,22,33,126,37,31,27,047,22,19,17,263,,26,13,086,30*7E
$GPGSV,3,3,10,01,05,170,20,17,05,243,*7E
$GPRMC,120220.000,A,6023.3793,N,02306.1577,E,0.14,34.63,151118,,,A*5D
$GPGGA,120221.000,6023.3794,N,02306.1577,E,1,7,1.30,54.8,M,20.3,M,,*6E
$GPGSA,A,3,26,03,31,22,01,09,23,,,,,,1.55,1.30,0.84*01
$GPGSV,3,1,10,23,72,203,32,03,55,129,41,06,45,290,15,09,44,232,37*74
$GPGSV,3,2,10,22,33,126,37,31,27,047,22,19,17,263,,26,13,086,29*76
$GPGSV,3,3,10,01,05,170,20,17,05,243,*7E
$GPRMC,120221.000,A,6023.3794,N,02306.1577,E,0.20,23.49,151118,,,A*52
$GPGGA,120222.000,6023.3795,N,02306.1578,E,1,7,1.30,54.7,M,20.3,M,,*6C
$GPGSA,A,3,26,03,31,22,01,09,23,,,,,,1.55,1.30,0.84*01
$GPGSV,3,1,10,23,72,203,32,03,55,129,41,06,45,290,15,09,44,232,37*74
$GPGSV,3,2,10,22,33,126,37,31,27,047,22,19,17,263,,26,13,086,28*77
$GPGSV,3,3,10,01,05,170,20,17,05,243,*7E
$GPRMC,120222.000,A,6023.3795,N,02306.1578,E,0.28,25.09,151118,,,A*55
$GPGGA,120223.000,6023.3797,N,02306.1578,E,1,7,1.30,54.6,M,20.3,M,,*6E
$GPGSA,A,3,26,03,31,22,01,09,23,,,,,,1.55,1.30,0.84*01
$GPGSV,3,1,10,23,72,203,32,03,55,129,41,06,45,290,16,09,44,232,37*77
$GPGSV,3,2,10,22,33,126,37,31,27,047,21,19,17,263,,26,13,086,27*7B
$GPGSV,3,3,10,01,05,170,20,17,05,243,*7E
$GPRMC,120223.000,A,6023.3797,N,02306.1578,E,0.33,14.37,151118,,,A*53
$GPGGA,120224.000,6023.3798,N,02306.1578,E,1,7,1.41,54.5,M,20.3,M,,*63
$GPGSA,A,3,26,03,31,22,01,09,23,,,,,,2.11,1.41,1.56*0A
$GPGSV,3,1,10,23,72,203,32,03,55,129,41,06,45,290,16,09,44,232,37*77
$GPGSV,3,2,10,22,33,126,37,31,27,047,20,19,17,263,,26,13,086,26*7B
$GPGSV,3,3,10,01,05,170,20,17,05,243,*7E
$GPRMC,120224.000,A,6023.3798,N,02306.1578,E,0.31,2.64,151118,,,A*68
$GPGGA,120225.000,6023.3798,N,02306.1579,E,1,7,1.41,54.5,M,20.3,M,,*63
$GPGSA,A,3,26,03,31,22,01,09,23,,,,,,2.11,1.41,1.56*0A
$GPGSV,3,1,10,23,72,203,32,03,55,129,41,06,45,290,16,09,44,232,37*77
$GPGSV,3,2,10,22,33,126,37,31,27,046,20,19,17,263,,26,13,086,25*79
$GPGSV,3,3,10,01,05,170,20,17,05,243,*7E
$GPRMC,120225.000,A,6023.3798,N,02306.1579,E,0.31,26.36,151118,,,A*59
$GPGGA,120226.000,6023.3799,N,02306.1580,E,1,7,1.30,54.5,M,20.3,M,,*61
$GPGSA,A,3,26,03,31,22,01,09,23,,,,,,1.55,1.30,0.84*01
$GPGSV,3,1,10,23,72,203,32,03,55,129,41,06,45,290,15,09,44,232,37*74
$GPGSV,3,2,10,22,33,126,37,31,27,046,20,19,17,263,,26,13,086,25*79
$GPGSV,3,3,10,01,05,170,19,17,05,243,*74
$GPRMC,120226.000,A,6023.3799,N,02306.1580,E,0.33,344.56,151118,,,A*6E
$GPGGA,120227.000,6023.3800,N,02306.1579,E,1,7,1.30,54.4,M,20.3,M,,*68
$GPGSA,A,3,26,03,31,22,01,09,23,,,,,,1.55,1.30,0.84*01
$GPGSV,3,1,10,23,72,203,32,03,55,129,41,06,45,290,15,09,44,232,37*74
$GPGSV,3,2,10,22,33,126,37,31,27,046,20,19,17,263,,26,13,086,25*79
$GPGSV,3,3,10,01,05,170,19,17,05,243,*74
$GPRMC,120227.000,A,6023.3800,N,02306.1579,E,0.32,357.97,151118,,,A*68
$GPGGA,120228.000,6023.3801,N,02306.1579,E,1,7,1.41,54.4,M,20.3,M,,*60
$GPGSA,A,3,26,03,31,22,01,09,23,,,,,,2.11,1.41,1.56*0A
$GPGSV,3,1,10,23,72,203,32,03,55,129,41,06,45,290,15,09,44,232,37*74
$GPGSV,3,2,10,22,33,126,36,31,27,046,20,19,17,263,,26,13,086,26*7B
$GPGSV,3,3,10,01,05,170,19,17,05,243,*74
$GPRMC,120228.000,A,6023.3801,N,02306.1579,E,0.31,339.10,151118,,,A*62
$GPGGA,120229.000,6023.3801,N,02306.1578,E,1,7,1.30,54.4,M,20.3,M,,*66
$GPGSA,A,3,26,03,31,22,01,09,23,,,,,,1.55,1.30,0.84*01
$GPGSV,3,1,10,23,72,203,32,03,55,129,41,06,45,290,15,09,44,232,37*74
$GPGSV,3,2,10,22,33,126,36,31,27,046,20,19,17,263,,26,13,086,27*7A
$GPGSV,3,3,10,01,05,170,18,17,05,243,*75
$GPRMC,120229.000,A,6023.3801,N,02306.1578,E,0.23,12.27,151118,,,A*5F
$GPGGA,120230.000,6023.3802,N,02306.1579,E,1,7,1.41,54.4,M,20.3,M,,*6A
$GPGSA,A,3,26,03,31,22,01,09,23,,,,,,2.11,1.41,1.56*0A
$GPGSV,3,1,10,23,72,203,32,03,55,129,41,06,45,290,14,09,44,232,37*75
$GPGSV,3,2,10,22,33,126,36,31,27,046,20,19,17,263,,26,13,086,28*75
$GPGSV,3,3,10,17,05,243,,01,04,170,18*74
$GPRMC,120230.000,A,6023.3802,N,02306.1579,E,0.17,29.60,151118,,,A*59
$GPGGA,120231.000,6023.3802,N,02306.1579,E,1,6,1.50,54.4,M,20.3,M,,*6A
$GPGSA,A,3,26,03,31,22,09,23,,,,,,,1.77,1.50,0.93*00
$GPGSV,3,1,10,23,72,203,32,03,55,129,41,06,45,290,14,09,44,232,37*75
$GPGSV,3,2,10,22,33,126,36,31,27,046,19,19,17,263,,26,13,086,29*7E
$GPGSV,3,3,10,17,05,243,,01,04,170,18*74
$GPRMC,120231.000,A,6023.3802,N,02306.1579,E,0.23,26.61,151118,,,A*51
$GPGGA,120232.000,6023.3803,N,02306.1580,E,1,6,1.50,54.4,M,20.3,M,,*6E
$GPGSA,A,3,26,03,31,22,09,23,,,,,,,1.77,1.50,0.93*00
$GPGSV,3,1,10,23,72,203,32,03,55,129,41,06,45,290,13,09,44,232,37*72
$GPGSV,3,2,10,22,33,126,36,31,27,046,19,19,17,263,,26,13,086,30*76
$GPGSV,3,3,10,17,05,243,,01,04,170,18*74
$GPRMC,120232.000,A,6023.3803,N,02306.1580,E,0.33,356.69,151118,,,A*68
$GPGGA,120233.000,6023.3804,N,02306.1580,E,1,6,1.68,54.4,M,20.3,M,,*63
$GPGSA,A,3,26,03,31,22,09,23,,,,,,,3.06,1.68,2.56*04
$GPGSV,3,1,10,23,72,203,32,03,55,129,41,06,45,290,13,09,44,232,37*72
$GPGSV,3,2,10,22,33,126,36,31,27,046,19,19,17,263,,26,13,086,31*77
$GPGSV,3,3,10,17,05,243,,01,04,170,18*74
$GPRMC,120233.000,A,6023.3804,N,02306.1580,E,0.31,4.03,151118,,,A*64
$GPGGA,120234.000,6023.3805,N,02306.1580,E,1,6,1.68,54.4,M,20.3,M,,*65
$GPGSA,A,3,26,03,31,22,09,23,,,,,,,3.06,1.68,2.56*04
$GPGSV,3,1,10,23,72,203,32,03,55,129,40,06,45,290,13,09,44,232,37*73
$GPGSV,3,2,10,22,33,126,36,31,27,046,19,19,17,263,,26,13,086,31*77
$GPGSV,3,3,10,17,05,243,,01,04,170,18*74
$GPRMC,120234.000,A,6023.3805,N,02306.1580,E,0.22,25.03,151118,,,A*53
$GPGGA,120235.000,6023.3805,N,02306.1580,E,1,6,1.50,54.4,M,20.3,M,,*6F
$GPGSA,A,3,26,03,31,22,09,23,,,,,,,1.77,1.50,0.93*00
$GPGSV,3,1,10,23,72,203,32,03,55,129,39,06,45,289,13,09,44,232,37*75
$GPGSV,3,2,10,22,33,126,36,31,27,046,19,19,17,263,,26,13,086,32*74
$GPGSV,3,3,10,17,05,243,,01,04,170,19*75
$GPRMC,120235.000,A,6023.3805,N,02306.1580,E,0.25,59.04,151118,,,A*59
$GPGGA,120236.000,6023.3805,N,02306.1582,E,1,6,1.50,54.4,M,20.3,M,,*6E
$GPGSA,A,3,26,03,31,22,09,23,,,,,,,1.77,1.50,0.93*00
$GPGSV,3,1,10,23,72,203,32,03,55,129,39,06,45,289,13,09,44,232,37*75
$GPGSV,3,2,10,22,33,126,36,31,27,046,20,19,17,263,,26,13,086,33*7F
$GPGSV,3,3,10,17,05,243,,01,04,170,19*75
$GPRMC,120236.000,A,6023.3805,N,02306.1582,E,0.13,66.84,151118,,,A*59
$GPGGA,120237.000,6023.3805,N,02306.1582,E,1,6,1.50,54.4,M,20.3,M,,*6F
$GPGSA,A,3,26,03,31,22,09,23,,,,,,,1.77,1.50,0.93*00
$GPGSV,3,1,10,23,72,203,32,03,55,129,39,06,45,289,13,09,44,232,37*75
$GPGSV,3,2,10,22,33,126,36,31,27,046,20,19,17,263,,26,13,086,33*7F
$GPGSV,3,3,10,17,05,243,,01,04,170,19*75
$GPRMC,120237.000,A,6023.3805,N,02306.1582,E,0.18,0.31,151118,,,A*6D
$GPGGA,120238.000,6023.3806,N,02306.1582,E,1,6,1.68,54.4,M,20.3,M,,*68
$GPGSA,A,3,26,03,31,22,09,23,,,,,,,3.06,1.68,2.56*04
$GPGSV,3,1,10,23,72,203,32,03,55,129,39,09,45,232,37,06,45,289,12*75
$GPGSV,3,2,10,22,33,126,36,31,27,046,20,19,17,263,,26,13,086,33*7F
$GPGSV,3,3,10,17,05,243,,01,04,170,19*75
$GPRMC,120238.000,A,6023.3806,N,02306.1582,E,0.03,36.69,151118,,,A*53
$GPGGA,120239.000,6023.3806,N,02306.1582,E,1,6,1.50,54.3,M,20.3,M,,*65
$GPGSA,A,3,26,03,31,22,09,23,,,,,,,1.77,1.50,0.93*00
$GPGSV,3,1,10,23,72,203,32,03,55,129,39,09,45,232,37,06,45,289,12*75
$GPGSV,3,2,10,22,33,126,36,31,27,046,20,19,17,263,,26,13,086,33*7F
$GPGSV,3,3,10,17,05,243,,01,04,170,19*75
$GPRMC,120239.000,A,6023.3806,N,02306.1582,E,0.10,352.84,151118,,,A*62
$GPGGA,120240.000,6023.3806,N,02306.1582,E,1,6,1.68,54.3,M,20.3,M,,*60
$GPGSA,A,3,26,03,31,22,09,23,,,,,,,3.06,1.68,2.56*04
$GPGSV,3,1,10,23,72,203,31,03,55,129,38,09,45,232,37,06,45,289,12*77
$GPGSV,3,2,10,22,33,126,36,31,27,046,19,19,17,263,,26,13,086,33*75
$GPGSV,3,3,10,17,05,243,,01,04,170,19*75
$GPRMC,120240.000,A,6023.3806,N,02306.1582,E,0.15,31.33,151118,,,A*53
$GPGGA,120241.000,6023.3806,N,02306.1583,E,1,6,1.50,54.3,M,20.3,M,,*6B
$GPGSA,A,3,26,03,31,22,09,23,,,,,,,1.77,1.50,0.93*00
$GPGSV,3,1,10,23,72,203,30,03,55,129,38,09,45,232,35,06,45,289,12*74
$GPGSV,3,2,10,22,33,126,36,31,27,046,18,19,17,263,,26,13,086,33*74
$GPGSV,3,3,10,17,05,243,,01,04,170,19*75
$GPRMC,120241.000,A,6023.3806,N,02306.1583,E,0.11,79.32,151118,,,A*5A
$GPGGA,120242.000,6023.3806,N,02306.1584,E,1,6,1.50,54.3,M,20.3,M,,*6F
$GPGSA,A,3,26,03,31,22,09,23,,,,,,,1.77,1.50,0.93*00
$GPGSV,3,1,10,23,72,203,23,03,55,129,38,09,45,232,23,06,45,289,12*71
$GPGSV,3,2,10,22,33,126,36,31,27,046,19,19,17,263,,26,13,086,33*75
$GPGSV,3,3,10,17,05,243,,01,04,170,20*7F
$GPRMC,120242.000,A,6023.3806,N,02306.1584,E,0.11,121.68,151118,,,A*6D
$GPGGA,120243.000,6023.3806,N,02306.1584,E,1,6,1.50,54.3,M,20.3,M,,*6E
$GPGSA,A,3,26,03,31,22,09,23,,,,,,,1.77,1.50,0.93*00
$GPGSV,3,1,10,23,72,203,25,03,55,129,37,09,45,232,23,06,45,289,12*78
$GPGSV,3,2,10,22,33,126,37,31,27,046,21,19,17,263,,26,13,086,32*7E
$GPGSV,3,3,10,17,05,243,,01,04,170,21*7E
$GPRMC,120243.000,A,6023.3806,N,02306.1584,E,0.05,134.61,151118,,,A*64
$GPGGA,120244.000,6023.3805,N,02306.1585,E,1,6,1.50,54.3,M,20.3,M,,*6B
$GPGSA,A,3,26,03,31,22,09,23,,,,,,,1.77,1.50,0.93*00
$GPGSV,3,1,10,23,72,203,27,03,55,129,35,09,45,232,24,06,45,289,12*7F
$GPGSV,3,2,10,22,33,126,38,31,27,046,28,19,17,263,,26,13,086,32*78
$GPGSV,3,3,10,17,05,243,,01,04,170,23*7C
$GPRMC,120244.000,A,6023.3805,N,02306.1585,E,0.24,77.36,151118,,,A*56
$GPGGA,120245.000,6023.3806,N,02306.1586,E,1,6,1.50,54.2,M,20.3,M,,*6B
$GPGSA,A,3,26,03,31,22,09,23,,,,,,,1.77,1.50,0.93*00
$GPGSV,3,1,10,23,72,203,29,03,55,129,36,09,45,232,26,06,45,289,13*71
$GPGSV,3,2,10,22,33,126,40,31,27,046,36,19,17,263,,26,13,086,44*79
$GPGSV,3,3,10,17,05,243,,01,04,170,31*7F
$GPRMC,120245.000,A,6023.3806,N,02306.1586,E,0.07,56.44,151118,,,A*50
$GPGGA,120246.000,6023.3806,N,02306.1587,E,1,6,1.50,54.2,M,20.3,M,,*69
$GPGSA,A,3,26,03,31,22,09,23,,,,,,,1.77,1.50,0.93*00
$GPGSV,3,1,10,23,72,203,18,03,55,129,18,09,45,232,17,06,45,289,12*7C
$GPGSV,3,2,10,22,33,126,18,31,27,046,18,19,17,263,,26,13,086,18*71
$GPGSV,3,3,10,01,04,170,18,17,04,243,*75
$GPRMC,120246.000,A,6023.3806,N,02306.1587,E,0.08,341.80,151118,,,A*60
$GPGGA,120247.000,6023.3806,N,02306.1587,E,1,6,1.68,54.2,M,20.3,M,,*63
$GPGSA,A,3,26,03,31,22,09,23,,,,,,,3.07,1.68,2.56*05
$GPGSV,3,1,10,23,72,203,14,03,55,129,14,09,45,232,12,06,45,289,12*79
$GPGSV,3,2,10,22,33,126,14,31,27,046,15,19,17,263,,26,13,086,15*7D
$GPGSV,3,3,10,01,04,170,15,17,04,243,*78
$GPRMC,120247.000,A,6023.3806,N,02306.1587,E,0.08,347.97,151118,,,A*61
$GPGGA,120248.000,6023.3806,N,02306.1586,E,1,5,1.53,54.2,M,20.3,M,,*66
$GPGSA,A,3,26,03,31,22,09,,,,,,,,1.80,1.53,0.95*0C
$GPGSV,3,1,10,23,72,203,,03,55,129,13,09,45,232,12,06,45,289,12*7B
$GPGSV,3,2,10,22,33,126,14,31,27,046,14,19,16,263,,26,13,086,13*7B
$GPGSV,3,3,10,01,04,170,14,17,04,243,*79
$GPRMC,120248.000,A,6023.3806,N,02306.1586,E,0.08,348.12,151118,,,A*6D
$GPGGA,120249.000,6023.3807,N,02306.1586,E,1,5,1.53,54.2,M,20.3,M,,*66
$GPGSA,A,3,26,03,31,22,09,,,,,,,,1.80,1.53,0.95*0C
$GPGSV,3,1,10,23,72,203,,03,55,129,12,09,45,232,13,06,45,289,12*7B
$GPGSV,3,2,10,22,33,126,13,31,27,046,12,19,16,263,,26,13,086,13*7A
$GPGSV,3,3,10,01,04,170,13,17,04,243,*7E
$GPRMC,120249.000,A,6023.3807,N,02306.1586,E,0.08,348.33,151118,,,A*6E
$GPGGA,120250.000,6023.3807,N,02306.1586,E,1,5,1.53,54.2,M,20.3,M,,*6E
$GPGSA,A,3,26,03,31,22,09,,,,,,,,1.80,1.53,0.95*0C
$GPGSV,3,1,10,23,72,203,,03,55,129,14,09,45,232,12,06,45,289,*7F
$GPGSV,3,2,10,22,33,126,13,31,27,046,13,19,16,263,,26,13,086,13*7B
$GPGSV,3,3,10,01,04,170,12,17,04,243,*7F
$GPRMC,120250.000,A,6023.3807,N,02306.1586,E,0.08,348.61,151118,,,A*61
$GPGGA,120251.000,6023.3807,N,02306.1586,E,6,3,2.23,54.2,M,20.3,M,,*6A
$GPGSA,A,1,03,31,09,,,,,,,,,,2.45,2.23,1.00*09
$GPGSV,3,1,10,23,72,203,,03,55,129,13,09,45,232,11,06,45,289,*7B
$GPGSV,3,2,10,22,33,126,,31,27,046,13,19,16,263,,26,13,086,*7B
$GPGSV,3,3,10,01,04,170,,17,04,243,*7C
$GPRMC,120251.000,V,,,,,0.08,348.46,151118,,,E*4B
$GPGGA,120252.000,6023.3807,N,02306.1586,E,6,3,2.23,54.2,M,20.3,M,,*69
$GPGSA,A,1,03,31,09,,,,,,,,,,2.45,2.23,1.00*09
$GPGSV,3,1,10,23,72,202,,03,55,129,11,09,45,232,11,06,45,289,*78
$GPGSV,3,2,10,22,33,126,,31,27,046,11,19,16,263,,26,13,086,*79
$GPGSV,3,3,10,01,04,170,,17,04,243,*7C
$GPRMC,120252.000,V,,,,,0.08,348.23,151118,,,E*4B
$GPGGA,120253.000,6023.3807,N,02306.1586,E,6,3,2.23,54.1,M,20.3,M,,*6B
$GPGSA,A,1,03,31,09,,,,,,,,,,2.45,2.23,1.00*09
$GPGSV,3,1,10,23,72,202,,03,55,129,12,09,45,232,12,06,45,289,*78
$GPGSV,3,2,10,22,33,126,,31,27,046,11,19,16,263,,26,13,086,*79
$GPGSV,3,3,10,01,04,170,,17,04,243,*7C
$GPRMC,120253.000,V,,,,,0.08,347.88,151118,,,E*44
$GPGGA,120254.000,6023.3808,N,02306.1586,E,6,0,99.99,54.1,M,20.3,M,,*53
$GPGSA,A,1,,,,,,,,,,,,,99.99,99.99,99.99*30
$GPGSV,3,1,10,23,72,202,,03,55,129,,09,45,232,,06,45,289,*78
$GPGSV,3,2,10,22,33,126,,31,27,046,,19,16,263,,26,13,086,*79
$GPGSV,3,3,10,01,04,170,,17,04,243,*7C
$GPRMC,120254.000,V,,,,,0.08,347.88,151118,,,E*43
$GPGGA,120255.000,6023.3808,N,02306.1586,E,6,0,99.99,54.1,M,20.3,M,,*52
$GPGSA,A,1,,,,,,,,,,,,,99.99,99.99,99.99*30
$GPGSV,3,1,10,23,72,202,,03,55,129,,09,45,232,,06,45,289,*78
$GPGSV,3,2,10,22,33,126,,31,27,046,,19,16,263,,26,13,086,*79
$GPGSV,3,3,10,01,04,170,,17,04,243,*7C
$GPRMC,120255.000,V,,,,,0.08,347.88,151118,,,E*42
$GPGGA,120256.000,6023.3808,N,02306.1586,E,6,0,99.99,54.1,M,20.3,M,,*51
$GPGSA,A,1,,,,,,,,,,,,,99.99,99.99,99.99*30
$GPGSV,3,1,10,23,72,202,,03,55,129,,09,45,232,,06,45,289,*78
$GPGSV,3,2,10,22,33,126,,31,27,046,,19,16,263,,26,13,086,*79
$GPGSV,3,3,10,01,04,170,,17,04,243,*7C
$GPRMC,120256.000,V,,,,,0.08,347.88,151118,,,E*41
$GPGGA,120257.000,,,,,0,0,,,M,,M,,*4B
$GPGSA,A,1,,,,,,,,,,,,,,,*1E
$GPGSV,3,1,10,23,72,202,,03,55,129,,09,45,232,,06,45,289,*78
$GPGSV,3,2,10,22,33,126,,31,27,046,,19,16,263,,26,13,086,*79
$GPGSV,3,3,10,01,04,170,,17,04,243,*7C
$GPRMC,120257.000,V,,,,,0.07,347.88,151118,,,N*44
$GPGGA,120258.000,,,,,0,0,,,M,,M,,*44
$GPGSA,A,1,,,,,,,,,,,,,,,*1E
$GPGSV,3,1,10,23,72,202,,03,55,129,,09,45,232,,06,45,289,*78
$GPGSV,3,2,10,22,33,126,,31,27,046,,19,16,263,,26,13,086,*79
$GPGSV,3,3,10,01,04,170,,17,04,243,*7C
$GPRMC,120258.000,V,,,,,0.07,347.88,151118,,,N*4B
$GPGGA,120259.000,,,,,0,0,,,M,,M,,*45
$GPGSA,A,1,,,,,,,,,,,,,,,*1E
$GPGSV,3,1,10,23,72,202,,03,55,129,,09,45,232,,06,45,289,*78
$GPGSV,3,2,10,22,33,126,,31,27,046,,19,16,263,,26,13,086,*79
$GPGSV,3,3,10,01,04,170,,17,04,243,*7C
$GPRMC,120259.000,V,,,,,0.06,347.88,151118,,,N*4B
$GPGGA,120300.000,,,,,0,0,,,M,,M,,*48
$GPGSA,A,1,,,,,,,,,,,,,,,*1E
$GPGSV,3,1,10,23,72,202,,03,55,129,,09,45,232,,06,45,289,*78
$GPGSV,3,2,10,22,33,126,,31,27,046,,19,16,263,,26,13,086,*79
$GPGSV,3,3,10,01,04,170,,17,04,243,*7C
$GPRMC,120300.000,V,,,,,0.05,347.88,151118,,,N*45
$GPGGA,120301.000,,,,,0,0,,,M,,M,,*49
$GPGSA,A,1,,,,,,,,,,,,,,,*1E
$GPGSV,3,1,10,23,72,202,,03,55,129,,09,45,232,,06,45,289,*78
$GPGSV,3,2,10,22,33,126,,31,27,046,,19,16,263,,26,13,086,*79
$GPGSV,3,3,10,01,04,170,,17,04,243,*7C
$GPRMC,120301.000,V,,,,,0.04,347.88,151118,,,N*45
$GPGGA,120302.000,,,,,0,0,,,M,,M,,*4A
$GPGSA,A,1,,,,,,,,,,,,,,,*1E
$GPGSV,3,1,10,23,72,202,,03,55,129,,09,45,232,,06,45,289,*78
$GPGSV,3,2,10,22,33,126,,31,27,046,,19,16,263,,26,13,086,*79
$GPGSV,3,3,10,01,04,170,,17,04,243,*7C
$GPRMC,120302.000,V,,,,,0.03,347.88,151118,,,N*41
$GPGGA,120303.000,,,,,0,0,,,M,,M,,*4B
$GPGSA,A,1,,,,,,,,,,,,,,,*1E
$GPGSV,3,1,10,23,72,202,,03,55,129,,09,45,232,,06,45,289,*78
$GPGSV,3,2,10,22,33,126,,31,27,046,,19,16,263,,26,13,086,*79
$GPGSV,3,3,10,01,04,170,,17,04,243,*7C
$GPRMC,120303.000,V,,,,,0.02,347.88,151118,,,N*41
$GPGGA,120304.000,,,,,0,0,,,M,,M,,*4C
$GPGSA,A,1,,,,,,,,,,,,,,,*1E
$GPGSV,3,1,10,23,72,202,,03,55,129,,09,45,232,,06,45,289,*78
$GPGSV,3,2,10,22,33,126,,31,27,046,,19,16,263,,26,13,086,*79
$GPGSV,3,3,10,01,04,170,,17,04,243,*7C
$GPRMC,120304.000,V,,,,,0.01,347.88,151118,,,N*45
$GPGGA,120305.000,,,,,0,0,,,M,,M,,*4D
$GPGSA,A,1,,,,,,,,,,,,,,,*1E
$GPGSV,3,1,10,23,72,202,,03,55,129,,09,45,232,,06,45,289,*78
$GPGSV,3,2,10,22,33,126,,31,27,046,,19,16,263,,26,13,086,*79
$GPGSV,3,3,10,01,04,170,,17,04,243,*7C
$GPRMC,120305.000,V,,,,,0.01,347.88,151118,,,N*44
$GPGGA,120306.000,,,,,0,2,,,M,,M,,*4C
$GPGSA,A,1,,,,,,,,,,,,,,,*1E
$GPGSV,3,1,10,23,72,202,,03,55,129,,09,45,232,,06,45,289,*78
$GPGSV,3,2,10,22,33,126,35,31,27,046,,19,16,263,,26,13,086,33*7F
$GPGSV,3,3,10,01,04,170,,17,04,243,*7C
$GPRMC,120306.000,V,,,,,0.09,146.39,151118,,,N*46
$GPGGA,120307.000,,,,,0,4,,,M,,M,,*4B
$GPGSA,A,1,,,,,,,,,,,,,,,*1E
$GPGSV,3,1,10,23,72,202,29,03,54,129,,09,45,232,22,06,45,289,*72
$GPGSV,3,2,10,22,33,126,30,31,27,046,,19,16,263,,26,13,086,36*7F
$GPGSV,3,3,10,01,04,170,,17,04,243,*7C
$GPRMC,120307.000,V,,,,,0.78,282.39,151118,,,N*4A
$GPGGA,120308.000,6023.3760,N,02306.1794,E,1,6,1.50,35.5,M,20.3,M,,*6D
$GPGSA,A,3,26,09,22,31,03,23,,,,,,,1.76,1.50,0.93*01
$GPGSV,3,1,10,23,72,202,28,03,54,129,34,09,45,232,20,06,45,289,*76
$GPGSV,3,2,10,22,33,126,34,31,27,046,32,19,16,263,,26,13,086,37*7B
$GPGSV,3,3,10,01,04,170,,17,04,243,*7C
$GPRMC,120308.000,A,6023.3760,N,02306.1794,E,0.58,321.16,151118,,,A*68
$GPGGA,120309.000,6023.3758,N,02306.1799,E,1,6,1.50,37.0,M,20.3,M,,*6D
$GPGSA,A,3,26,09,22,31,03,23,,,,,,,1.76,1.50,0.93*01
$GPGSV,3,1,10,23,72,202,37,03,54,129,36,09,45,232,36,06,45,289,*7D
$GPGSV,3,2,10,22,33,126,41,31,27,046,37,19,16,263,,26,13,086,32*79
$GPGSV,3,3,10,01,04,170,,17,04,243,*7C
$GPRMC,120309.000,A,6023.3758,N,02306.1799,E,0.61,334.06,151118,,,A*60
$GPGGA,120310.000,6023.3751,N,02306.1802,E,1,6,1.50,37.1,M,20.3,M,,*60
$GPGSA,A,3,26,09,22,31,03,23,,,,,,,1.76,1.50,0.93*01
$GPGSV,3,1,10,23,72,202,42,03,54,129,35,09,45,232,37,06,45,289,*7D
$GPGSV,3,2,10,22,33,126,38,31,27,046,36,19,16,263,,26,13,086,33*77
$GPGSV,3,3,10,01,04,170,,17,04,243,*7C
$GPRMC,120310.000,A,6023.3751,N,02306.1802,E,0.28,300.44,151118,,,A*60
$GPGGA,120311.000,6023.3745,N,02306.1794,E,1,6,1.50,36.5,M,20.3,M,,*61
$GPGSA,A,3,26,09,22,31,03,23,,,,,,,1.76,1.50,0.93*01
$GPGSV,3,1,10,23,72,202,42,03,54,129,34,09,45,232,36,06,45,289,*7D
$GPGSV,3,2,10,22,33,126,38,31,27,046,38,19,16,263,,26,13,086,33*79
$GPGSV,3,3,10,01,04,170,,17,04,243,*7C
$GPRMC,120311.000,A,6023.3745,N,02306.1794,E,1.06,305.43,151118,,,A*6B
$GPGGA,120312.000,6023.3746,N,02306.1791,E,1,6,1.50,36.5,M,20.3,M,,*64
$GPGSA,A,3,26,09,22,31,03,23,,,,,,,1.76,1.50,0.93*01
$GPGSV,3,1,10,23,72,202,42,03,54,129,34,09,45,232,37,06,45,289,*7C
$GPGSV,3,2,10,22,33,126,38,31,27,046,38,19,16,263,,26,13,086,32*78
$GPGSV,3,3,10,01,04,170,,17,04,243,*7C
$GPRMC,120312.000,A,6023.3746,N,02306.1791,E,0.53,286.65,151118,,,A*61
$GPGGA,120313.000,6023.3746,N,02306.1788,E,1,6,1.50,36.4,M,20.3,M,,*6C
$GPGSA,A,3,26,09,22,31,03,23,,,,,,,1.76,1.50,0.93*01
$GPGSV,3,1,10,23,72,202,42,03,54,129,34,09,45,232,37,06,45,289,*7C
$GPGSV,3,2,10,22,33,126,38,31,27,046,38,19,16,263,,26,13,086,31*7B
$GPGSV,3,3,10,01,04,170,,17,04,243,*7C
$GPRMC,120313.000,A,6023.3746,N,02306.1788,E,0.37,316.63,151118,,,A*64
$GPGGA,120314.000,6023.3747,N,02306.1787,E,1,6,1.50,36.4,M,20.3,M,,*65
$GPGSA,A,3,26,09,22,31,03,23,,,,,,,1.76,1.50,0.93*01
$GPGSV,3,1,10,23,72,202,42,03,54,129,34,09,45,232,37,06,45,289,*7C
$GPGSV,3,2,10,22,33,126,38,31,27,046,38,19,16,263,,26,13,086,31*7B
$GPGSV,3,3,10,01,04,170,,17,04,243,*7C
$GPRMC,120314.000,A,6023.3747,N,02306.1787,E,0.26,344.04,151118,,,A*6B
$GPGGA,120315.000,6023.3747,N,02306.1786,E,1,6,1.50,36.3,M,20.3,M,,*62
$GPGSA,A,3,26,09,22,31,03,23,,,,,,,1.76,1.50,0.93*01
$GPGSV,3,1,10,23,72,202,42,03,54,129,34,09,45,232,38,06,45,289,*73
$GPGSV,3,2,10,22,33,126,38,31,27,046,38,19,16,263,,26,13,086,30*7A
$GPGSV,3,3,10,01,04,170,,17,04,243,*7C
$GPRMC,120315.000,A,6023.3747,N,02306.1786,E,0.03,290.80,151118,,,A*68
$GPGGA,120316.000,6023.3747,N,02306.1786,E,1,6,1.50,36.3,M,20.3,M,,*61
$GPGSA,A,3,26,09,22,31,03,23,,,,,,,1.76,1.50,0.93*01
$GPGSV,3,1,10,23,72,202,42,03,54,129,34,09,45,232,38,06,45,289,*73
$GPGSV,3,2,10,22,33,126,38,31,27,046,38,19,16,263,,26,13,086,29*72
$GPGSV,3,3,10,01,04,170,,17,04,243,*7C
$GPRMC,120316.000,A,6023.3747,N,02306.1786,E,0.18,182.49,151118,,,A*64
$GPGGA,120317.000,6023.3747,N,02306.1786,E,1,6,1.49,36.3,M,20.3,M,,*68
$GPGSA,A,3,26,09,22,31,03,23,,,,,,,1.76,1.49,0.93*09
$GPGSV,3,1,10,23,72,202,42,03,54,129,34,09,45,232,38,06,45,289,18*7A
$GPGSV,3,2,10,22,33,126,38,31,27,046,38,19,16,263,,26,13,086,28*73
$GPGSV,3,3,10,01,04,170,,17,04,243,*7C
$GPRMC,120317.000,A,6023.3747,N,02306.1786,E,0.03,134.34,151118,,,A*68
$GPGGA,120318.000,6023.3746,N,02306.1786,E,1,6,1.49,36.2,M,20.3,M,,*67
$GPGSA,A,3,26,09,22,31,03,23,,,,,,,1.76,1.49,0.93*09
$GPGSV,3,1,10,23,72,202,42,03,54,129,34,09,45,232,38,06,45,289,20*71
$GPGSV,3,2,10,22,33,126,38,31,27,046,38,19,16,263,,26,13,086,27*7C
$GPGSV,3,3,10,01,04,170,,17,04,243,*7C
$GPRMC,120318.000,A,6023.3746,N,02306.1786,E,0.28,222.13,151118,,,A*6E
$GPGGA,120319.000,6023.3746,N,02306.1785,E,1,6,1.49,36.2,M,20.3,M,,*65
$GPGSA,A,3,26,09,22,31,03,23,,,,,,,1.76,1.49,0.93*09
$GPGSV,3,1,10,23,72,202,42,03,54,129,34,09,45,232,38,06,45,289,20*71
$GPGSV,3,2,10,22,33,126,38,31,27,046,38,19,16,263,,26,13,086,26*7D
$GPGSV,3,3,10,01,04,170,,17,04,243,*7C
$GPRMC,120319.000,A,6023.3746,N,02306.1785,E,0.15,195.02,151118,,,A*6D
$GPGGA,120320.000,6023.3745,N,02306.1785,E,1,6,1.50,36.2,M,20.3,M,,*64
$GPGSA,A,3,26,09,22,31,03,23,,,,,,,1.76,1.50,0.93*01
$GPGSV,3,1,10,23,72,202,42,03,54,129,34,09,45,232,38,06,45,289,20*71
$GPGSV,3,2,10,22,33,126,38,31,27,046,38,19,16,263,,26,13,086,26*7D
$GPGSV,3,3,10,01,04,170,,17,04,243,*7C
$GPRMC,120320.000,A,6023.3745,N,02306.1785,E,0.07,287.60,151118,,,A*63
$GPGGA,120321.000,6023.3745,N,02306.1784,E,1,6,1.49,36.2,M,20.3,M,,*6C
$GPGSA,A,3,26,09,22,31,03,23,,,,,,,1.76,1.49,0.93*09
$GPGSV,3,1,10,23,72,202,42,03,54,129,34,09,45,232,38,06,45,289,20*71
$GPGSV,3,2,10,22,33,126,38,31,27,046,38,19,16,263,,26,13,086,26*7D
$GPGSV,3,3,10,01,04,170,,17,04,242,*7D
$GPRMC,120321.000,A,6023.3745,N,02306.1784,E,0.04,169.75,151118,,,A*67
$GPGGA,120322.000,6023.3745,N,02306.1784,E,1,6,1.49,36.1,M,20.3,M,,*6C
$GPGSA,A,3,26,09,22,31,03,23,,,,,,,1.76,1.49,0.93*09
$GPGSV,3,1,10,23,72,202,42,03,54,129,34,09,45,232,38,06,45,289,20*71
$GPGSV,3,2,10,22,33,126,38,31,27,046,38,19,16,263,,26,13,086,26*7D
$GPGSV,3,3,10,01,04,170,,17,04,242,*7D
$GPRMC,120322.000,A,6023.3745,N,02306.1784,E,0.19,304.52,151118,,,A*64
$GPGGA,120323.000,6023.3745,N,02306.1783,E,1,6,1.49,36.1,M,20.3,M,,*6A
$GPGSA,A,3,26,09,22,31,03,23,,,,,,,1.76,1.49,0.93*09
$GPGSV,3,1,10,23,72,202,42,03,54,129,34,09,45,232,38,06,45,289,20*71
$GPGSV,3,2,10,22,33,126,38,31,27,046,38,19,16,263,,26,13,086,27*7C
$GPGSV,3,3,10,01,04,170,,17,04,242,*7D
$GPRMC,120323.000,A,6023.3745,N,02306.1783,E,0.15,293.15,151118,,,A*62
$GPGGA,120324.000,6023.3746,N,02306.1783,E,1,6,1.49,36.1,M,20.3,M,,*6E
$GPGSA,A,3,26,09,22,31,03,23,,,,,,,1.76,1.49,0.93*09
$GPGSV,3,1,10,23,72,202,42,03,54,129,34,09,45,232,38,06,45,289,21*70
$GPGSV,3,2,10,22,33,126,38,31,27,046,38,19,16,263,,26,13,086,28*73
$GPGSV,3,3,10,01,04,170,,17,04,242,*7D
$GPRMC,120324.000,A,6023.3746,N,02306.1783,E,0.10,307.17,151118,,,A*6D
$GPGGA,120325.000,6023.3746,N,02306.1782,E,1,6,1.49,36.1,M,20.3,M,,*6E
$GPGSA,A,3,26,09,22,31,03,23,,,,,,,1.76,1.49,0.93*09
$GPGSV,3,1,10,23,72,202,42,03,54,129,34,09,45,232,38,06,45,289,21*70
$GPGSV,3,2,10,22,33,126,38,31,27,046,38,19,16,263,,26,13,086,29*72
$GPGSV,3,3,10,01,04,170,,17,04,242,*7D
$GPRMC,120325.000,A,6023.3746,N,02306.1782,E,0.04,311.23,151118,,,A*68
$GPGGA,120326.000,6023.3746,N,02306.1782,E,1,6,1.49,36.0,M,20.3,M,,*6C
$GPGSA,A,3,26,09,22,31,03,23,,,,,,,1.76,1.49,0.93*09
$GPGSV,3,1,10,23,72,202,42,03,54,129,35,09,45,232,38,06,45,289,21*71
$GPGSV,3,2,10,22,32,126,38,31,27,046,38,19,16,263,,26,13,086,30*7B
$GPGSV,3,3,10,01,04,170,,17,04,242,*7D
$GPRMC,120326.000,A,6023.3746,N,02306.1782,E,0.01,350.73,151118,,,A*6E
$GPGGA,120327.000,6023.3746,N,02306.1782,E,1,6,1.68,36.0,M,20.3,M,,*6E
$GPGSA,A,3,26,09,22,31,03,23,,,,,,,3.09,1.68,2.59*04
$GPGSV,3,1,10,23,72,202,42,03,54,129,35,09,45,232,38,06,45,289,20*70
$GPGSV,3,2,10,22,32,126,38,31,27,046,38,19,16,263,,26,13,086,31*7A
$GPGSV,3,3,10,01,04,170,,17,04,242,*7D
$GPRMC,120327.000,A,6023.3746,N,02306.1782,E,0.02,6.68,151118,,,A*66
$GPGGA,120328.000,6023.3746,N,02306.1782,E,1,6,1.68,36.0,M,20.3,M,,*61
$GPGSA,A,3,26,09,22,31,03,23,,,,,,,3.09,1.68,2.59*04
$GPGSV,3,1,10,23,72,202,42,03,54,129,35,09,45,232,38,06,45,289,19*7A
$GPGSV,3,2,10,22,32,126,38,31,27,046,38,19,16,263,,26,13,086,32*79
$GPGSV,3,3,10,01,04,170,,17,04,242,*7D
$GPRMC,120328.000,A,6023.3746,N,02306.1782,E,0.01,143.30,151118,,,A*67
$GPGGA,120329.000,6023.3746,N,02306.1782,E,1,6,1.49,35.9,M,20.3,M,,*69
$GPGSA,A,3,26,09,22,31,03,23,,,,,,,1.76,1.49,0.93*09
$GPGSV,3,1,10,23,72,202,42,03,54,129,36,09,45,232,38,06,45,289,19*79
$GPGSV,3,2,10,22,32,126,38,31,27,046,38,19,16,263,,26,13,086,33*78
$GPGSV,3,3,10,01,04,170,,17,04,242,*7D
$GPRMC,120329.000,A,6023.3746,N,02306.1782,E,0.03,84.01,151118,,,A*5C
$GPGGA,120330.000,6023.3745,N,02306.1782,E,1,6,1.49,35.9,M,20.3,M,,*62
$GPGSA,A,3,26,09,22,31,03,23,,,,,,,1.76,1.49,0.93*09
$GPGSV,3,1,10,23,72,202,42,03,54,129,36,09,45,232,38,06,45,289,19*79
$GPGSV,3,2,10,22,32,126,38,31,27,046,38,19,16,263,,26,13,086,34*7F
$GPGSV,3,3,10,01,04,170,,17,04,242,*7D
$GPRMC,120330.000,A,6023.3745,N,02306.1782,E,0.01,179.35,151118,,,A*61
$GPGGA,120331.000,6023.3745,N,02306.1782,E,1,6,1.49,35.9,M,20.3,M,,*63
$GPGSA,A,3,26,09,22,31,03,23,,,,,,,1.76,1.49,0.93*09
$GPGSV,3,1,10,23,72,202,42,03,54,129,36,09,45,232,38,06,45,289,18*78
$GPGSV,3,2,10,22,32,126,38,31,27,046,38,19,16,263,,26,13,086,35*7E
$GPGSV,3,3,10,01,04,170,,17,04,242,*7D
$GPRMC,120331.000,A,6023.3745,N,02306.1782,E,0.00,154.24,151118,,,A*6E
$GPGGA,120332.000,6023.3745,N,02306.1782,E,1,6,1.49,35.9,M,20.3,M,,*60
$GPGSA,A,3,26,09,22,31,03,23,,,,,,,1.76,1.49,0.93*09
$GPGSV,3,1,10,23,72,202,42,03,54,129,37,09,45,232,38,06,45,289,17*76
$GPGSV,3,2,10,22,32,126,38,31,27,046,38,19,16,263,,26,13,086,36*7D
$GPGSV,3,3,10,01,04,170,,17,04,242,*7D
$GPRMC,120332.000,A,6023.3745,N,02306.1782,E,0.03,95.52,151118,,,A*53
$GPGGA,120333.000,6023.3745,N,02306.1782,E,1,6,1.49,35.9,M,20.3,M,,*61
$GPGSA,A,3,26,09,22,31,03,23,,,,,,,1.76,1.49,0.93*09
$GPGSV,3,1,10,23,72,202,42,03,54,129,37,09,45,232,38,06,45,289,16*77
$GPGSV,3,2,10,22,32,126,38,31,27,046,38,19,16,263,,26,13,086,36*7D
$GPGSV,3,3,10,01,04,170,,17,04,242,*7D
$GPRMC,120333.000,A,6023.3745,N,02306.1782,E,0.02,330.58,151118,,,A*65
$GPGGA,120334.000,6023.3745,N,02306.1782,E,1,6,1.49,35.9,M,20.3,M,,*66
$GPGSA,A,3,26,09,22,31,03,23,,,,,,,1.76,1.49,0.93*09
$GPGSV,3,1,10,23,72,202,42,03,54,129,37,09,45,232,38,06,45,289,16*77
$GPGSV,3,2,10,22,32,126,38,31,27,046,38,19,16,263,,26,13,086,36*7D
$GPGSV,3,3,10,01,04,170,,17,04,242,*7D
$GPRMC,120334.000,A,6023.3745,N,02306.1782,E,0.03,98.46,151118,,,A*5D
$GPGGA,120335.000,6023.3745,N,02306.1782,E,1,6,1.49,35.9,M,20.3,M,,*67
$GPGSA,A,3,26,09,22,31,03,23,,,,,,,1.76,1.49,0.93*09
$GPGSV,3,1,10,23,72,202,42,03,54,129,37,09,45,232,38,06,45,289,16*77
$GPGSV,3,2,10,22,32,126,38,31,27,046,38,19,16,263,,26,13,086,37*7C
$GPGSV,3,3,10,01,04,170,,17,04,242,*7D
$GPRMC,120335.000,A,6023.3745,N,02306.1782,E,0.01,122.46,151118,,,A*6E
$GPGGA,120336.000,6023.3745,N,02306.1782,E,1,6,1.49,35.9,M,20.3,M,,*64
$GPGSA,A,3,26,09,22,31,03,23,,,,,,,1.76,1.49,0.93*09
$GPGSV,3,1,10,23,72,202,42,03,54,129,37,09,45,232,38,06,45,289,15*74
$GPGSV,3,2,10,22,32,126,38,31,27,046,38,19,16,263,,26,13,086,37*7C
$GPGSV,3,3,10,01,04,170,,17,04,242,*7D
$GPRMC,120336.000,A,6023.3745,N,02306.1782,E,0.01,76.07,151118,,,A*58
$GPGGA,120337.000,6023.3745,N,02306.1781,E,1,6,1.49,35.9,M,20.3,M,,*66
$GPGSA,A,3,26,09,22,31,03,23,,,,,,,1.76,1.49,0.93*09
$GPGSV,3,1,10,23,72,202,42,03,54,129,38,09,45,232,38,06,45,289,16*78
$GPGSV,3,2,10,22,32,126,38,31,27,046,38,19,16,263,,26,13,086,38*73
$GPGSV,3,3,10,01,04,170,,17,04,242,*7D
$GPRMC,120337.000,A,6023.3745,N,02306.1781,E,0.02,138.76,151118,,,A*64
$GPGGA,120338.000,6023.3745,N,02306.1781,E,1,6,1.49,35.9,M,20.3,M,,*69
$GPGSA,A,3,26,09,22,31,03,23,,,,,,,1.76,1.49,0.93*09
$GPGSV,3,1,10,23,72,202,42,03,54,129,38,09,45,232,38,06,45,289,16*78
$GPGSV,3,2,10,22,32,126,38,31,27,046,38,19,16,263,,26,13,086,38*73
$GPGSV,3,3,10,01,04,170,,17,04,242,*7D
$GPRMC,120338.000,A,6023.3745,N,02306.1781,E,0.01,48.47,151118,,,A*5C
$GPGGA,120339.000,6023.3745,N,02306.1781,E,1,6,1.68,35.9,M,20.3,M,,*6B
$GPGSA,A,3,26,09,22,31,03,23,,,,,,,3.10,1.68,2.60*06
$GPGSV,3,1,10,23,72,202,42,03,54,129,39,09,45,232,38,06,45,289,16*79
$GPGSV,3,2,10,22,32,126,38,31,27,046,38,19,16,263,,26,13,086,38*73
$GPGSV,3,3,10,01,04,170,,17,04,242,*7D
$GPRMC,120339.000,A,6023.3745,N,02306.1781,E,0.02,65.88,151118,,,A*52
$GPGGA,120340.000,6023.3745,N,02306.1781,E,1,6,1.68,35.9,M,20.3,M,,*65
$GPGSA,A,3,26,09,22,31,03,23,,,,,,,3.10,1.68,2.60*06
$GPGSV,3,1,10,23,72,202,42,03,54,129,40,09,45,232,39,06,45,289,16*76
$GPGSV,3,2,10,22,32,126,38,31,27,046,39,19,16,263,,26,13,086,38*72
$GPGSV,3,3,10,01,04,170,,17,04,242,*7D
$GPRMC,120340.000,A,6023.3745,N,02306.1781,E,0.01,308.07,151118,,,A*60
$GPGGA,120341.000,6023.3745,N,02306.1781,E,1,6,1.68,35.9,M,20.3,M,,*64
$GPGSA,A,3,26,09,22,31,03,23,,,,,,,3.10,1.68,2.60*06
$GPGSV,3,1,10,23,72,202,42,03,54,129,40,09,45,232,39,06,45,289,16*76
$GPGSV,3,2,10,22,32,126,38,31,27,046,39,19,16,263,,26,13,086,38*72
$GPGSV,3,3,10,01,04,170,,17,04,242,*7D
$GPRMC,120341.000,A,6023.3745,N,02306.1781,E,0.02,122.53,151118,,,A*69
$GPGGA,120342.000,6023.3745,N,02306.1781,E,1,6,1.68,35.9,M,20.3,M,,*67
$GPGSA,A,3,26,09,22,31,03,23,,,,,,,3.10,1.68,2.60*06
$GPGSV,3,1,10,23,72,202,42,03,54,129,40,09,45,232,39,06,45,289,16*76
$GPGSV,3,2,10,22,32,126,37,31,27,046,39,19,16,263,,26,13,086,38*7D
$GPGSV,3,3,10,01,04,170,,17,04,242,*7D
$GPRMC,120342.000,A,6023.3745,N,02306.1781,E,0.01,127.84,151118,,,A*66
$GPGGA,120343.000,6023.3745,N,02306.1781,E,1,6,1.68,35.9,M,20.3,M,,*66
$GPGSA,A,3,26,09,22,31,03,23,,,,,,,3.10,1.68,2.60*06
$GPGSV,3,1,10,23,72,202,42,03,54,129,40,09,45,232,39,06,45,289,16*76
$GPGSV,3,2,10,22,32,126,37,31,27,046,39,19,16,263,,26,13,086,38*7D
$GPGSV,3,3,10,01,04,170,,17,04,242,*7D
$GPRMC,120343.000,A,6023.3745,N,02306.1781,E,0.00,236.84,151118,,,A*65
$GPGGA,120344.000,6023.3745,N,02306.1781,E,1,6,1.68,35.9,M,20.3,M,,*61
$GPGSA,A,3,26,09,22,31,03,23,,,,,,,3.10,1.68,2.60*06
$GPGSV,3,1,10,23,72,202,42,03,54,129,40,09,45,232,39,06,45,289,16*76
$GPGSV,3,2,10,22,32,126,36,31,27,046,39,19,16,263,,26,13,086,38*7C
$GPGSV,3,3,10,01,04,170,,17,04,242,*7D
$GPRMC,120344.000,A,6023.3745,N,02306.1781,E,0.01,98.41,151118,,,A*5C
$GPGGA,120345.000,6023.3745,N,02306.1781,E,1,6,1.68,35.9,M,20.3,M,,*60
$GPGSA,A,3,26,09,22,31,03,23,,,,,,,3.10,1.68,2.60*06
$GPGSV,3,1,10,23,72,202,42,03,54,129,40,09,45,232,39,06,45,289,15*75
$GPGSV,3,2,10,22,32,126,36,31,27,046,39,19,16,263,,26,13,086,38*7C
$GPGSV,3,3,10,01,04,170,,17,04,242,*7D
$GPRMC,120345.000,A,6023.3745,N,02306.1781,E,0.01,119.82,151118,,,A*6A
$GPGGA,120346.000,6023.3745,N,02306.1780,E,1,6,1.68,35.9,M,20.3,M,,*62
$GPGSA,A,3,26,09,22,31,03,23,,,,,,,3.10,1.68,2.60*06
$GPGSV,3,1,10,23,72,202,42,03,54,129,40,09,45,232,39,06,45,289,14*74
$GPGSV,3,2,10,22,32,126,36,31,27,046,39,19,16,263,,26,13,086,38*7C
$GPGSV,3,3,10,01,04,170,,17,04,242,*7D
$GPRMC,120346.000,A,6023.3745,N,02306.1780,E,0.00,46.39,151118,,,A*52
$GPGGA,120347.000,6023.3745,N,02306.1780,E,1,6,1.68,35.9,M,20.3,M,,*63
$GPGSA,A,3,26,09,22,31,03,23,,,,,,,3.10,1.68,2.61*07
$GPGSV,3,1,10,23,72,202,42,03,54,129,40,09,45,232,39,06,45,289,14*74
$GPGSV,3,2,10,22,32,126,36,31,27,046,39,19,16,263,,26,13,086,38*7C
$GPGSV,3,3,10,01,04,170,,17,04,242,*7D
$GPRMC,120347.000,A,6023.3745,N,02306.1780,E,0.01,38.69,151118,,,A*5E
$GPGGA,120348.000,6023.3745,N,02306.1780,E,1,6,1.68,35.9,M,20.3,M,,*6C
$GPGSA,A,3,26,09,22,31,03,23,,,,,,,3.10,1.68,2.61*07
$GPGSV,3,1,10,23,72,202,42,03,54,129,40,09,45,232,39,06,45,289,14*74
$GPGSV,3,2,10,22,32,126,36,31,27,046,39,19,16,263,,26,13,086,38*7C
$GPGSV,3,3,10,01,04,170,,17,04,242,*7D
$GPRMC,120348.000,A,6023.3745,N,02306.1780,E,0.00,105.08,151118,,,A*68
$GPGGA,120349.000,6023.3745,N,02306.1780,E,1,6,1.68,35.9,M,20.3,M,,*6D
$GPGSA,A,3,26,09,22,31,03,23,,,,,,,3.10,1.68,2.61*07
$GPGSV,3,1,10,23,72,202,42,03,54,129,40,09,45,232,39,06,45,289,14*74
$GPGSV,3,2,10,22,32,126,36,31,27,046,39,19,16,263,,26,13,086,37*73
$GPGSV,3,3,10,01,04,170,,17,04,242,*7D
$GPRMC,120349.000,A,6023.3745,N,02306.1780,E,0.01,132.96,151118,,,A*6B
$GPGGA,120350.000,6023.3745,N,02306.1780,E,1,6,1.69,35.9,M,20.3,M,,*64
$GPGSA,A,3,26,09,22,31,03,23,,,,,,,3.10,1.69,2.61*06
$GPGSV,3,1,10,23,72,202,42,03,54,129,40,09,45,232,39,06,45,289,14*74
$GPGSV,3,2,10,22,32,126,36,31,27,046,39,19,16,263,,26,13,086,37*73
$GPGSV,3,3,10,01,04,170,,17,04,242,*7D
$GPRMC,120350.000,A,6023.3745,N,02306.1780,E,0.01,131.08,151118,,,A*67
$GPGGA,120351.000,6023.3745,N,02306.1780,E,1,6,1.68,35.9,M,20.3,M,,*64
$GPGSA,A,3,26,09,22,31,03,23,,,,,,,3.10,1.68,2.61*07
$GPGSV,3,1,10,23,72,202,42,03,54,129,40,09,45,232,39,06,45,289,15*75
$GPGSV,3,2,10,22,32,126,36,31,27,046,39,19,16,263,,26,13,086,37*73
$GPGSV,3,3,10,01,04,170,,17,04,242,*7D
$GPRMC,120351.000,A,6023.3745,N,02306.1780,E,0.01,87.86,151118,,,A*5C
$GPGGA,120352.000,6023.3745,N,02306.1780,E,1,6,1.69,35.8,M,20.3,M,,*67
$GPGSA,A,3,26,09,22,31,03,23,,,,,,,3.11,1.69,2.61*07
$GPGSV,3,1,10,23,72,202,42,03,54,129,40,09,45,232,39,06,45,289,15*75
$GPGSV,3,2,10,22,32,126,35,31,27,046,39,19,16,263,,26,13,086,36*71
$GPGSV,3,3,10,01,04,170,,17,04,242,*7D
$GPRMC,120352.000,A,6023.3745,N,02306.1780,E,0.01,82.99,151118,,,A*54
$GPGGA,120353.000,6023.3745,N,02306.1780,E,1,6,1.68,35.8,M,20.3,M,,*67
$GPGSA,A,3,26,09,22,31,03,23,,,,,,,3.11,1.68,2.61*06
$GPGSV,3,1,10,23,72,202,42,03,54,129,40,09,45,232,39,06,45,289,15*75
$GPGSV,3,2,10,22,32,126,35,31,27,046,39,19,16,263,,26,13,086,35*72
$GPGSV,3,3,10,01,04,170,,17,04,242,*7D
$GPRMC,120353.000,A,6023.3745,N,02306.1780,E,0.00,357.01,151118,,,A*6E
$GPGGA,120354.000,6023.3745,N,02306.1780,E,1,6,1.68,35.8,M,20.3,M,,*60
$GPGSA,A,3,26,09,22,31,03,23,,,,,,,3.11,1.68,2.61*06
$GPGSV,3,1,10,23,72,202,42,03,54,129,40,09,45,232,39,06,45,289,15*75
$GPGSV,3,2,10,22,32,126,34,31,27,046,39,19,16,263,,26,13,086,34*72
$GPGSV,3,3,10,01,04,170,,17,04,242,*7D
$GPRMC,120354.000,A,6023.3745,N,02306.1780,E,0.01,96.38,151118,,,A*5C
$GPGGA,120355.000,6023.3745,N,02306.1780,E,1,6,1.68,35.8,M,20.3,M,,*61
$GPGSA,A,3,26,09,22,31,03,23,,,,,,,3.11,1.68,2.61*06
$GPGSV,3,1,10,23,72,202,42,03,54,129,40,09,45,232,39,06,45,289,15*75
$GPGSV,3,2,10,22,32,126,34,31,27,046,39,19,16,263,,26,13,086,33*75
$GPGSV,3,3,10,01,04,170,,17,04,242,*7D
$GPRMC,120355.000,A,6023.3745,N,02306.1780,E,0.02,105.51,151118,,,A*6A
$GPGGA,120356.000,6023.3745,N,02306.1780,E,1,6,1.68,35.8,M,20.3,M,,*62
$GPGSA,A,3,26,09,22,31,03,23,,,,,,,3.11,1.68,2.61*06
$GPGSV,3,1,10,23,72,202,42,03,54,129,40,09,45,232,39,06,45,289,15*75
$GPGSV,3,2,10,22,32,126,34,31,27,046,39,19,16,263,,26,13,086,32*74
$GPGSV,3,3,10,01,04,170,,17,04,242,*7D
$GPRMC,120356.000,A,6023.3745,N,02306.1780,E,0.02,145.65,151118,,,A*6A
$GPGGA,120357.000,6023.3745,N,02306.1780,E,1,6,1.68,35.8,M,20.3,M,,*63
$GPGSA,A,3,26,09,22,31,03,23,,,,,,,3.11,1.68,2.61*06
$GPGSV,3,1,10,23,72,202,42,03,54,129,40,09,45,232,39,06,45,289,15*75
$GPGSV,3,2,10,22,32,126,33,31,27,046,39,19,16,263,,26,13,086,32*73
$GPGSV,3,3,10,01,04,170,,17,04,242,*7D
$GPRMC,120357.000,A,6023.3745,N,02306.1780,E,0.01,108.12,151118,,,A*61
$GPGGA,120358.000,6023.3745,N,02306.1780,E,1,6,1.68,35.8,M,20.3,M,,*6C
$GPGSA,A,3,26,09,22,31,03,23,,,,,,,3.11,1.68,2.61*06
$GPGSV,3,1,10,23,72,202,42,03,54,129,40,09,45,232,39,06,45,289,15*75
$GPGSV,3,2,10,22,32,126,33,31,27,046,39,19,16,263,,26,13,086,31*70
$GPGSV,3,3,10,01,04,170,,17,04,242,*7D
$GPRMC,120358.000,A,6023.3745,N,02306.1780,E,0.01,43.57,151118,,,A*51
$GPGGA,120359.000,6023.3745,N,02306.1779,E,1,6,1.69,35.8,M,20.3,M,,*6A
$GPGSA,A,3,26,09,22,31,03,23,,,,,,,3.11,1.69,2.61*07
$GPGSV,3,1,10,23,72,202,42,03,54,129,40,09,45,232,39,06,45,289,15*75
$GPGSV,3,2,10,22,32,126,33,31,27,046,39,19,16,263,,26,13,086,30*71
$GPGSV,3,3,10,01,04,170,,17,04,242,*7D
$GPRMC,120359.000,A,6023.3745,N,02306.1779,E,0.01,201.33,151118,,,A*60
$GPGGA,120400.000,6023.3745,N,02306.1779,E,1,6,1.68,35.8,M,20.3,M,,*60
$GPGSA,A,3,26,09,22,31,03,23,,,,,,,3.11,1.68,2.61*06
$GPGSV,3,1,10,23,72,202,42,03,54,129,40,09,45,232,39,06,45,289,16*76
$GPGSV,3,2,10,22,32,126,32,31,27,046,38,19,16,263,,26,13,086,29*79
$GPGSV,3,3,10,01,04,170,,17,04,242,*7D
$GPRMC,120400.000,A,6023.3745,N,02306.1779,E,0.01,89.94,151118,,,A*54
$GPGGA,120401.000,6023.3745,N,02306.1779,E,1,6,1.69,35.8,M,20.3,M,,*60
$GPGSA,A,3,26,09,22,31,03,23,,,,,,,3.11,1.69,2.62*04
$GPGSV,3,1,10,23,72,202,42,03,54,129,40,09,45,232,39,06,45,289,16*76
$GPGSV,3,2,10,22,32,127,31,31,27,046,38,19,16,263,,26,13,086,29*7B
$GPGSV,3,3,10,01,04,170,,17,04,242,*7D
$GPRMC,120401.000,A,6023.3745,N,02306.1779,E,0.02,89.29,151118,,,A*50
$GPGGA,120402.000,6023.3745,N,02306.1779,E,1,6,1.69,35.7,M,20.3,M,,*6C
$GPGSA,A,3,26,09,22,31,03,23,,,,,,,3.11,1.69,2.62*04
$GPGSV,3,1,10,23,72,201,42,03,54,129,40,09,45,232,39,06,45,289,15*76
$GPGSV,3,2,10,22,32,127,31,31,27,046,38,19,16,263,,26,13,086,29*7B
$GPGSV,3,3,10,01,04,170,,17,04,242,*7D
$GPRMC,120402.000,A,6023.3745,N,02306.1779,E,0.00,71.15,151118,,,A*59
$GPGGA,120403.000,6023.3745,N,02306.1780,E,1,6,1.69,35.7,M,20.3,M,,*6B
$GPGSA,A,3,26,09,22,31,03,23,,,,,,,3.11,1.69,2.62*04
$GPGSV,3,1,10,23,72,201,42,03,54,129,40,09,45,232,39,06,45,289,15*76
$GPGSV,3,2,10,22,32,127,31,31,27,046,38,19,16,263,,26,13,086,29*7B
$GPGSV,3,3,10,01,04,170,,17,04,242,*7D
$GPRMC,120403.000,A,6023.3745,N,02306.1780,E,0.01,117.08,151118,,,A*62
$GPGGA,120404.000,6023.3745,N,02306.1779,E,1,6,1.69,35.7,M,20.3,M,,*6A
$GPGSA,A,3,26,09,22,31,03,23,,,,,,,3.11,1.69,2.62*04
$GPGSV,3,1,10,23,72,201,42,03,54,129,40,09,45,232,39,06,45,289,15*76
$GPGSV,3,2,10,22,32,127,30,31,27,046,38,19,16,263,,26,13,086,29*7A
$GPGSV,3,3,10,01,04,170,,17,04,242,*7D
$GPRMC,120404.000,A,6023.3745,N,02306.1779,E,0.01,232.89,151118,,,A*6E
$GPGGA,120405.000,6023.3745,N,02306.1780,E,1,6,1.68,35.7,M,20.3,M,,*6C
$GPGSA,A,3,26,09,22,31,03,23,,,,,,,3.11,1.68,2.62*05
$GPGSV,3,1,10,23,72,201,42,03,54,129,40,09,45,232,39,06,45,289,15*76
$GPGSV,3,2,10,22,32,127,30,31,27,046,38,19,16,263,,26,13,086,29*7A
$GPGSV,3,3,10,01,04,170,,17,04,242,*7D
$GPRMC,120405.000,A,6023.3745,N,02306.1780,E,0.00,53.88,151118,,,A*5C
$GPGGA,120406.000,6023.3745,N,02306.1780,E,1,6,1.69,35.7,M,20.3,M,,*6E
$GPGSA,A,3,26,09,22,31,03,23,,,,,,,3.12,1.69,2.62*07
$GPGSV,3,1,10,23,72,201,42,03,54,129,40,09,45,232,39,06,45,289,15*76
$GPGSV,3,2,10,22,32,127,30,31,27,046,38,19,16,263,,26,13,086,29*7A
$GPGSV,3,3,10,01,04,170,,17,04,242,*7D
$GPRMC,120406.000,A,6023.3745,N,02306.1780,E,0.02,93.87,151118,,,A*5E
$GPGGA,120407.000,6023.3745,N,02306.1780,E,1,6,1.69,35.7,M,20.3,M,,*6F
$GPGSA,A,3,26,09,22,31,03,23,,,,,,,3.11,1.69,2.62*04
$GPGSV,3,1,10,23,72,201,42,03,54,129,40,09,45,232,39,06,45,289,15*76
$GPGSV,3,2,10,22,32,127,30,31,27,046,38,19,16,263,,26,13,086,30*72
$GPGSV,3,3,10,01,04,170,,17,04,242,*7D
$GPRMC,120407.000,A,6023.3745,N,02306.1780,E,0.00,0.00,151118,,,A*68
$GPGGA,120408.000,6023.3745,N,02306.1780,E,1,6,1.69,35.7,M,20.3,M,,*60
$GPGSA,A,3,26,09,22,31,03,23,,,,,,,3.11,1.69,2.62*04
$GPGSV,3,1,10,23,72,201,42,03,54,129,40,09,45,232,39,06,45,289,16*75
$GPGSV,3,2,10,22,32,127,29,31,27,046,38,19,16,263,,26,13,086,31*7B
$GPGSV,3,3,10,01,04,170,,17,04,242,*7D
$GPRMC,120408.000,A,6023.3745,N,02306.1780,E,0.02,106.53,151118,,,A*64
$GPGGA,120409.000,6023.3745,N,02306.1780,E,1,6,1.69,35.7,M,20.3,M,,*61
$GPGSA,A,3,26,09,22,31,03,23,,,,,,,3.12,1.69,2.62*07
$GPGSV,3,1,10,23,72,201,42,03,54,129,40,09,45,232,39,06,45,289,16*75
$GPGSV,3,2,10,22,32,127,29,31,27,046,38,19,16,263,,26,13,086,31*7B
$GPGSV,3,3,10,01,04,170,,17,04,242,*7D
$GPRMC,120409.000,A,6023.3745,N,02306.1780,E,0.01,175.02,151118,,,A*66
